id,STOP_ID,DIRECTION_ID,STOP_NAME,station_name,station_descriptive_name,MAP_ID,ADA,RED,BLUE,G,BRN,P,Pexp,Y,Pnk,O,created_at,updated_at,Location
299,30161,E,18th (Loop-bound),18th,18th (Pink Line),40830,t,f,f,f,f,f,f,f,t,f,2015-10-30 14:41:47.224216,2015-10-30 14:41:47.224216,{41.857908;-87.669147}
300,30022,N,35th/Archer (Loop-bound),35th/Archer,35th/Archer (Orange Line),40120,t,f,f,f,f,f,f,f,f,t,2015-10-30 14:41:47.238442,2015-10-30 14:41:47.238442,{41.829353;-87.680622}
301,30213,N,35-Bronzeville-IIT (Harlem-bound),35th-Bronzeville-IIT,35th-Bronzeville-IIT (Green Line),41120,t,f,f,t,f,f,f,f,f,f,2015-10-30 14:41:47.241591,2015-10-30 14:41:47.241591,{41.831677;-87.625826}
302,30245,N,43rd (Harlem-bound),43rd,43rd (Green Line),41270,t,f,f,t,f,f,f,f,f,f,2015-10-30 14:41:47.244636,2015-10-30 14:41:47.244636,{41.816462;-87.619021}
303,30210,S,47th (63rd-bound),47th,47th (Green Line),41080,t,f,f,t,f,f,f,f,f,f,2015-10-30 14:41:47.247963,2015-10-30 14:41:47.247963,{41.809209;-87.618826}
304,30237,N,47th (Howard-bound),47th,47th (Red Line),41230,t,t,f,f,f,f,f,f,f,f,2015-10-30 14:41:47.251265,2015-10-30 14:41:47.251265,{41.810318;-87.63094}
305,30024,N,51st (Harlem-bound),51st,51st (Green Line),40130,t,f,f,t,f,f,f,f,f,f,2015-10-30 14:41:47.254653,2015-10-30 14:41:47.254653,{41.80209;-87.618487}
306,30113,E,54th/Cermak (Loop-bound),54th/Cermak,54th/Cermak (Pink Line),40580,t,f,f,f,f,f,f,f,t,f,2015-10-30 14:41:47.258243,2015-10-30 14:41:47.258243,{41.85177331;-87.75669201}
307,30177,N,63rd (Howard-bound),63rd,63rd (Red Line),40910,t,t,f,f,f,f,f,f,f,f,2015-10-30 14:41:47.261412,2015-10-30 14:41:47.261412,{41.780536;-87.630952}
308,30191,N,69th (Howard-bound),69th,69th (Red Line),40990,t,t,f,f,f,f,f,f,f,f,2015-10-30 14:41:47.264614,2015-10-30 14:41:47.264614,{41.768367;-87.625724}
309,30046,N,79th (Howard-bound),79th,79th (Red Line),40240,t,t,f,f,f,f,f,f,f,f,2015-10-30 14:41:47.267761,2015-10-30 14:41:47.267761,{41.750419;-87.625112}
310,30275,N,87th (Howard-bound),87th,87th (Red Line),41430,t,t,f,f,f,f,f,f,f,f,2015-10-30 14:41:47.272130,2015-10-30 14:41:47.272130,{41.735372;-87.624717}
311,30089,S,95th/Dan Ryan (95th-bound),95th/Dan Ryan,95th/Dan Ryan (Red Line),40450,t,t,f,f,f,f,f,f,f,f,2015-10-30 14:41:47.276692,2015-10-30 14:41:47.276692,{41.722377;-87.624342}
312,30132,S,Adams/Wabash (Inner Loop),Adams/Wabash,Adams/Wabash (Brown,40680,f,f,f,t,f,f,t,f,t,t,2015-10-30 14:41:47.280700,2015-10-30 14:41:47.280700,{41.879507;-87.626037}
313,30240,S,Addison (Forest Pk-bound),Addison,Addison (Blue Line),41240,f,f,t,f,f,f,f,f,f,f,2015-10-30 14:41:47.283946,2015-10-30 14:41:47.283946,{41.94738;-87.71906}
314,30277,N,Addison (Kimball-bound),Addison,Addison (Brown Line),41440,t,f,f,f,t,f,f,f,f,f,2015-10-30 14:41:47.287272,2015-10-30 14:41:47.287272,{41.947028;-87.674642}
315,30274,S,Addison (95th-bound),Addison,Addison (Red Line),41420,t,t,f,f,f,f,f,f,f,f,2015-10-30 14:41:47.290484,2015-10-30 14:41:47.290484,{41.947428;-87.653626}
316,30229,N,Argyle (Howard-bound),Argyle,Argyle (Red Line),41200,f,t,f,f,f,f,f,f,f,f,2015-10-30 14:41:47.293804,2015-10-30 14:41:47.293804,{41.973453;-87.65853}
317,30128,S,Armitage (Loop-bound),Armitage,Armitage (Brown & Purple Lines),40660,t,f,f,f,t,f,t,f,f,f,2015-10-30 14:41:47.297012,2015-10-30 14:41:47.297012,{41.918217;-87.652644}
318,30205,N,Ashland (Loop-bound),Ashland,Ashland (Orange Line),41060,t,f,f,f,f,f,f,f,f,t,2015-10-30 14:41:47.299995,2015-10-30 14:41:47.299995,{41.839234;-87.665317}
319,30033,E,Ashland (Loop-63rd-bound),Ashland,Ashland (Green & Pink Lines),40170,t,f,f,t,f,f,f,f,t,f,2015-10-30 14:41:47.303706,2015-10-30 14:41:47.303706,{41.885269;-87.666969}
320,30057,W,Ashland/63rd (Terminal arrival),Ashland/63rd,Ashland/63rd (Green Line),40290,t,f,f,t,f,f,f,f,f,f,2015-10-30 14:41:47.306843,2015-10-30 14:41:47.306843,{41.77886;-87.663766}
321,30001,E,Austin (O'Hare-bound),Austin,Austin (Blue Line),40010,f,f,t,f,f,f,f,f,f,f,2015-10-30 14:41:47.309842,2015-10-30 14:41:47.309842,{41.870851;-87.776812}
322,30243,E,Austin (63rd-bound),Austin,Austin (Green Line),41260,f,f,f,t,f,f,f,f,f,f,2015-10-30 14:41:47.313068,2015-10-30 14:41:47.313068,{41.887293;-87.774135}
323,30258,S,Belmont (Loop-bound),Belmont,Belmont (Red,41320,t,f,f,f,t,f,t,f,f,f,2015-10-30 14:41:47.316314,2015-10-30 14:41:47.316314,{41.939751;-87.65338}
324,30013,S,Belmont (O'Hare Branch) (Forest Pk-bound),Belmont,Belmont (Blue Line),40060,f,f,t,f,f,f,f,f,f,f,2015-10-30 14:41:47.319854,2015-10-30 14:41:47.319854,{41.938132;-87.712359}
325,30067,S,Berwyn (95th-bound),Berwyn,Berwyn (Red Line),40340,f,t,f,f,f,f,f,f,f,f,2015-10-30 14:41:47.323843,2015-10-30 14:41:47.323843,{41.977984;-87.658668}
326,30267,N,Bryn Mawr (Howard-bound),Bryn Mawr,Bryn Mawr (Red Line),41380,f,t,f,f,f,f,f,f,f,f,2015-10-30 14:41:47.327549,2015-10-30 14:41:47.327549,{41.983504;-87.65884}
327,30086,E,California (Loop-bound),California,California (Pink Line),40440,t,f,f,f,f,f,f,f,t,f,2015-10-30 14:41:47.331103,2015-10-30 14:41:47.331103,{41.854109;-87.694774}
328,30111,N,California (O'Hare-bound),California,California (Blue Line),40570,f,f,t,f,f,f,f,f,f,f,2015-10-30 14:41:47.334718,2015-10-30 14:41:47.334718,{41.921939;-87.69689}
329,30266,W,California (Harlem-bound),California,California (Green Line),41360,t,f,f,t,f,f,f,f,f,f,2015-10-30 14:41:47.338429,2015-10-30 14:41:47.338429,{41.88422;-87.696234}
330,30242,S,Central (Howard-Loop-bound),Central,Central (Purple Line),41250,f,f,f,f,f,t,t,f,f,f,2015-10-30 14:41:47.341534,2015-10-30 14:41:47.341534,{42.063987;-87.685617}
331,30055,W,Central (Harlem-bound),Central,Central (Green Line),40280,t,f,f,t,f,f,f,f,f,f,2015-10-30 14:41:47.344946,2015-10-30 14:41:47.344946,{41.887389;-87.76565}
332,30151,E,Central Park (Loop-bound),Central Park,Central Park (Pink Line),40780,t,f,f,f,f,f,f,f,t,f,2015-10-30 14:41:47.348201,2015-10-30 14:41:47.348201,{41.853839;-87.714842}
333,30194,S,Cermak-Chinatown (95th-bound),Cermak-Chinatown,Cermak-Chinatown (Red Line),41000,t,t,f,f,f,f,f,f,f,f,2015-10-30 14:41:47.351230,2015-10-30 14:41:47.351230,{41.853206;-87.630968}
334,30382,S,Cermak-McCormick Place (63rd-bound),Cermak-McCormick Place,Cermak-McCormick Place (Green Line),41690,t,,,t,,,,,,,2015-10-30 14:41:47.354114,2015-10-30 14:41:47.354114,{41.853115;-87.626402}
335,30138,S,Chicago (Loop-bound),Chicago,Chicago (Brown & Purple Lines),40710,t,f,f,f,t,f,t,f,f,f,2015-10-30 14:41:47.357514,2015-10-30 14:41:47.357514,{41.89681;-87.635924}
336,30271,N,Chicago (O'Hare-bound),Chicago,Chicago (Blue Line),41410,f,f,t,f,f,f,f,f,f,f,2015-10-30 14:41:47.360832,2015-10-30 14:41:47.360832,{41.896075;-87.655214}
337,30279,N,Chicago (Howard-bound),Chicago,Chicago (Red Line),41450,t,t,f,f,f,f,f,f,f,f,2015-10-30 14:41:47.363940,2015-10-30 14:41:47.363940,{41.896671;-87.628176}
338,30187,E,Cicero (O'Hare-bound),Cicero,Cicero (Blue Line),40970,f,f,t,f,f,f,f,f,f,f,2015-10-30 14:41:47.366972,2015-10-30 14:41:47.366972,{41.871574;-87.745154}
339,30083,W,Cicero (54th/Cermak-bound),Cicero,Cicero (Pink Line),40420,t,f,f,f,f,f,f,f,t,f,2015-10-30 14:41:47.370598,2015-10-30 14:41:47.370598,{41.85182;-87.745336}
340,30009,W,Cicero (Harlem-bound),Cicero,Cicero (Green Line),40480,t,f,f,t,f,f,f,f,f,f,2015-10-30 14:41:47.373637,2015-10-30 14:41:47.373637,{41.886519;-87.744698}
341,30122,S,Clark/Division (95th-bound),Clark/Division,Clark/Division (Red Line),40630,f,t,f,f,f,f,f,f,f,f,2015-10-30 14:41:47.376760,2015-10-30 14:41:47.376760,{41.90392;-87.631412}
342,30074,E,Clark/Lake (Inner Loop),Clark/Lake,Clark/Lake (Blue,40380,t,f,f,t,f,f,t,f,t,t,2015-10-30 14:41:47.379943,2015-10-30 14:41:47.379943,{41.885737;-87.630886}
343,30222,W,Clinton (Harlem-54th/Cermak-bound),Clinton,Clinton (Green & Pink Lines),41160,t,f,f,t,f,f,f,f,t,f,2015-10-30 14:41:47.383152,2015-10-30 14:41:47.383152,{41.885678;-87.641782}
344,30085,W,Clinton (Forest Pk-bound),Clinton,Clinton (Blue Line),40430,f,f,t,f,f,f,f,f,f,f,2015-10-30 14:41:47.386433,2015-10-30 14:41:47.386433,{41.875539;-87.640984}
345,30291,E,Conservatory (63rd-bound),Conservatory,Conservatory (Green Line),41670,t,f,f,t,f,f,f,f,f,f,2015-10-30 14:41:47.419434,2015-10-30 14:41:47.419434,{41.884904;-87.716523}
346,30140,W,Cottage Grove (Harlem-bound),Cottage Grove,Cottage Grove (Green Line),40720,t,f,f,t,f,f,f,f,f,f,2015-10-30 14:41:47.422627,2015-10-30 14:41:47.422627,{41.780309;-87.605857}
347,30044,N,Cumberland (O'Hare-bound),Cumberland,Cumberland (Blue Line),40230,t,f,t,f,f,f,f,f,f,f,2015-10-30 14:41:47.426144,2015-10-30 14:41:47.426144,{41.984246;-87.838028}
348,30019,S,Damen (Loop-bound),Damen,Damen (Brown Line),40090,t,f,f,f,t,f,f,f,f,f,2015-10-30 14:41:47.429544,2015-10-30 14:41:47.429544,{41.966286;-87.678639}
349,30041,W,Damen (54th/Cermak-bound),Damen,Damen (Pink Line),40210,t,f,f,f,f,f,f,f,t,f,2015-10-30 14:41:47.432832,2015-10-30 14:41:47.432832,{41.854517;-87.675975}
350,30116,S,Damen/Milwaukee (Forest Pk-bound),Damen,Damen (Blue Line),40590,f,f,t,f,f,f,f,f,f,f,2015-10-30 14:41:47.436240,2015-10-30 14:41:47.436240,{41.909744;-87.677437}
351,30010,N,Davis (Linden-bound),Davis,Davis (Purple Line),40050,t,f,f,f,f,t,t,f,f,f,2015-10-30 14:41:47.440311,2015-10-30 14:41:47.440311,{42.04771;-87.683543}
352,30133,N,Dempster (Linden-bound),Dempster,Dempster (Purple Line),40690,f,f,f,f,f,t,t,f,f,f,2015-10-30 14:41:47.443312,2015-10-30 14:41:47.443312,{42.041655;-87.681602}
353,30026,N,Dempster-Skokie (Arrival),Dempster-Skokie,Dempster-Skokie  (Yellow Line),40140,t,f,f,f,f,f,f,t,f,f,2015-10-30 14:41:47.446325,2015-10-30 14:41:47.446325,{42.038951;-87.751919}
354,30103,N,Diversey (Kimball-Linden-bound),Diversey,Diversey (Brown & Purple Lines),40530,t,f,f,f,t,f,t,f,f,f,2015-10-30 14:41:47.449678,2015-10-30 14:41:47.449678,{41.932732;-87.653131}
355,30062,N,Division (O'Hare-bound),Division,Division (Blue Line),40320,f,f,t,f,f,f,f,f,f,f,2015-10-30 14:41:47.453120,2015-10-30 14:41:47.453120,{41.903355;-87.666496}
356,30077,W,Forest Park (Terminal Arrival),Forest Park,Forest Park (Blue Line),40390,t,f,t,f,f,f,f,f,f,f,2015-10-30 14:41:47.456202,2015-10-30 14:41:47.456202,{41.874257;-87.817318}
357,30101,N,Foster (Linden-bound),Foster,Foster (Purple Line),40520,f,f,f,f,f,t,t,f,f,f,2015-10-30 14:41:47.459324,2015-10-30 14:41:47.459324,{42.05416;-87.68356}
358,30168,S,Francisco (Loop-bound),Francisco,Francisco (Brown Line),40870,t,f,f,f,t,f,f,f,f,f,2015-10-30 14:41:47.462686,2015-10-30 14:41:47.462686,{41.966046;-87.701644}
359,30234,S,Fullerton (95th-bound),Fullerton,Fullerton (Red,41220,t,t,f,f,f,f,f,f,f,f,2015-10-30 14:41:47.465849,2015-10-30 14:41:47.465849,{41.925051;-87.652866}
360,30100,S,Garfield (63rd-bound),Garfield,Garfield (Green Line),40510,t,f,f,t,f,f,f,f,f,f,2015-10-30 14:41:47.468879,2015-10-30 14:41:47.468879,{41.795172;-87.618327}
361,30224,S,Garfield (95th-bound),Garfield,Garfield (Red Line),41170,t,t,f,f,f,f,f,f,f,f,2015-10-30 14:41:47.472295,2015-10-30 14:41:47.472295,{41.79542;-87.631157}
362,30096,S,Grand/Milwaukee (Forest Pk-bound),Grand,Grand (Blue Line),40490,f,f,t,f,f,f,f,f,f,f,2015-10-30 14:41:47.475639,2015-10-30 14:41:47.475639,{41.891189;-87.647578}
363,30064,N,Grand/State (Howard-bound),Grand,Grand (Red Line),40330,t,t,f,f,f,f,f,f,f,f,2015-10-30 14:41:47.478795,2015-10-30 14:41:47.478795,{41.891665;-87.628021}
364,30148,S,Granville (95th-bound),Granville,Granville (Red Line),40760,t,t,f,f,f,f,f,f,f,f,2015-10-30 14:41:47.481718,2015-10-30 14:41:47.481718,{41.993664;-87.659202}
365,30183,E,Halsted/63rd (Harlem-bound),Halsted,Halsted (Green Line),40940,t,f,f,t,f,f,f,f,f,f,2015-10-30 14:41:47.485236,2015-10-30 14:41:47.485236,{41.778943;-87.644244}
366,30216,S,Halsted (Midway-bound),Halsted,Halsted (Orange Line),41130,t,f,f,f,f,f,f,f,f,t,2015-10-30 14:41:47.488486,2015-10-30 14:41:47.488486,{41.84678;-87.648088}
367,30189,E,Harlem (Forest Pk Branch) (O'Hare-bound),Harlem,Harlem (Blue Line - Forest Park Branch),40980,f,f,t,f,f,f,f,f,f,f,2015-10-30 14:41:47.491578,2015-10-30 14:41:47.491578,{41.87349;-87.806961}
368,30146,S,Harlem (O'Hare Branch) (Forest Pk-bound),Harlem,Harlem (Blue Line - O'Hare Branch),40750,t,f,t,f,f,f,f,f,f,f,2015-10-30 14:41:47.494657,2015-10-30 14:41:47.494657,{41.98227;-87.8089}
369,30003,E,Harlem (63rd-bound),Harlem/Lake,Harlem/Lake (Green Line),40020,t,f,f,t,f,f,f,f,f,f,2015-10-30 14:41:47.497865,2015-10-30 14:41:47.497865,{41.886848;-87.803176}
370,30165,E,H.W. Library (Outer Loop),Harold Washington Library-State/Van Buren,Harold Washington Library-State/Van Buren (Brown,40850,t,f,f,f,t,f,f,f,f,f,2015-10-30 14:41:47.500920,2015-10-30 14:41:47.500920,{41.876862;-87.628196}
371,30286,S,Harrison (95th-bound),Harrison,Harrison (Red Line),41490,f,t,f,f,f,f,f,f,f,f,2015-10-30 14:41:47.504057,2015-10-30 14:41:47.504057,{41.874039;-87.627479}
372,30173,N,Howard (Terminal arrival),Howard,Howard (Red,40900,t,t,f,f,f,f,f,f,f,f,2015-10-30 14:41:47.507443,2015-10-30 14:41:47.507443,{42.019063;-87.672892}
373,30157,E,Illinois Medical District (O'Hare-bound),Illinois Medical District,Illinois Medical District (Blue Line),40810,t,f,t,f,f,f,f,f,f,f,2015-10-30 14:41:47.510466,2015-10-30 14:41:47.510466,{41.875706;-87.673932}
374,30059,S,Indiana (63rd-bound),Indiana,Indiana (Green Line),40300,t,f,f,t,f,f,f,f,f,f,2015-10-30 14:41:47.513616,2015-10-30 14:41:47.513616,{41.821732;-87.621371}
375,30282,S,Irving Park (Loop-bound),Irving Park,Irving Park (Brown Line),41460,t,f,f,f,t,f,f,f,f,f,2015-10-30 14:41:47.516696,2015-10-30 14:41:47.516696,{41.954521;-87.674868}
376,30107,N,Irving Park (O'Hare Branch) (O'Hare-bound),Irving Park,Irving Park (Blue Line),40550,f,f,t,f,f,f,f,f,f,f,2015-10-30 14:41:47.520121,2015-10-30 14:41:47.520121,{41.952925;-87.729229}
377,30014,N,Jackson/Dearborn (O'Hare-bound),Jackson,Jackson (Blue Line),40070,t,f,t,f,f,f,f,f,f,f,2015-10-30 14:41:47.523248,2015-10-30 14:41:47.523248,{41.878183;-87.629296}
378,30110,S,Jackson/State (95th-bound),Jackson,Jackson (Red Line),40560,t,t,f,f,f,f,f,f,f,f,2015-10-30 14:41:47.526235,2015-10-30 14:41:47.526235,{41.878153;-87.627596}
379,30227,N,Jarvis (Howard-bound),Jarvis,Jarvis (Red Line),41190,f,t,f,f,f,f,f,f,f,f,2015-10-30 14:41:47.529365,2015-10-30 14:41:47.529365,{42.015876;-87.669092}
380,30247,N,Jefferson Park (O'Hare-bound),Jefferson Park,Jefferson Park (Blue Line),41280,t,f,t,f,f,f,f,f,f,f,2015-10-30 14:41:47.533365,2015-10-30 14:41:47.533365,{41.970634;-87.760892}
381,30226,S,Kedzie (Loop-bound),Kedzie,Kedzie (Brown Line),41180,t,f,f,f,t,f,f,f,f,f,2015-10-30 14:41:47.537055,2015-10-30 14:41:47.537055,{41.965996;-87.708821}
382,30219,N,Kedzie (Loop-bound),Kedzie,Kedzie (Orange Line),41150,t,f,f,f,f,f,f,f,f,t,2015-10-30 14:41:47.540388,2015-10-30 14:41:47.540388,{41.804236;-87.704406}
383,30202,W,Kedzie (54th/Cermak-bound),Kedzie,Kedzie (Pink Line),41040,t,f,f,f,f,f,f,f,t,f,2015-10-30 14:41:47.543614,2015-10-30 14:41:47.543614,{41.853964;-87.705408}
384,30207,E,Kedzie (63rd-bound),Kedzie,Kedzie (Green Line),41070,t,f,f,t,f,f,f,f,f,f,2015-10-30 14:41:47.546660,2015-10-30 14:41:47.546660,{41.884321;-87.706155}
385,30049,W,Kedzie-Homan (Forest Pk-bound),Kedzie-Homan,Kedzie-Homan (Blue Line),40250,t,f,t,f,f,f,f,f,f,f,2015-10-30 14:41:47.549699,2015-10-30 14:41:47.549699,{41.874341;-87.70604}
386,30249,N,Kimball (Terminal arrival),Kimball,Kimball (Brown Line),41290,t,f,f,f,t,f,f,f,f,f,2015-10-30 14:41:47.552924,2015-10-30 14:41:47.552924,{41.967901;-87.713065}
387,30217,E,King Drive (Cottage Grove-bound),King Drive,King Drive (Green Line),41140,t,f,f,t,f,f,f,f,f,f,2015-10-30 14:41:47.556112,2015-10-30 14:41:47.556112,{41.78013;-87.615546}
388,30117,E,Kostner (Loop-bound),Kostner,Kostner (Pink Line),40600,t,f,f,f,f,f,f,f,t,f,2015-10-30 14:41:47.559421,2015-10-30 14:41:47.559421,{41.853751;-87.733258}
389,30290,S,Lake (95th-bound),Lake,Lake (Red Line),41660,t,t,f,f,f,f,f,f,f,f,2015-10-30 14:41:47.562423,2015-10-30 14:41:47.562423,{41.884809;-87.627813}
390,30135,E,Laramie (63rd-bound),Laramie,Laramie (Green Line),40700,t,f,f,t,f,f,f,f,f,f,2015-10-30 14:41:47.565550,2015-10-30 14:41:47.565550,{41.887163;-87.754986}
391,30262,W,LaSalle (Forest Pk-bound),LaSalle,LaSalle (Blue Line),41340,f,f,t,f,f,f,f,f,f,f,2015-10-30 14:41:47.568868,2015-10-30 14:41:47.568868,{41.875568;-87.631722}
392,30030,E,LaSalle/Van Buren (Outer Loop),LaSalle/Van Buren,LaSalle/Van Buren (Brown,40160,f,f,f,f,t,f,f,f,f,f,2015-10-30 14:41:47.572074,2015-10-30 14:41:47.572074,{41.8768;-87.631739}
393,30149,N,Lawrence (Howard-bound),Lawrence,Lawrence (Red Line),40770,f,t,f,f,f,f,f,f,f,f,2015-10-30 14:41:47.575159,2015-10-30 14:41:47.575159,{41.969139;-87.658493}
394,30203,N,Linden (Linden-bound),Linden,Linden (Purple Line),41050,t,f,f,f,f,t,t,f,f,f,2015-10-30 14:41:47.578268,2015-10-30 14:41:47.578268,{42.073153;-87.69073}
395,30197,N,Logan Square (O'Hare-bound),Logan Square,Logan Square (Blue Line),41020,t,f,t,f,f,f,f,f,f,f,2015-10-30 14:41:47.581450,2015-10-30 14:41:47.581450,{41.929728;-87.708541}
396,30251,N,Loyola (Howard-bound),Loyola,Loyola (Red Line),41300,t,t,f,f,f,f,f,f,f,f,2015-10-30 14:41:47.584517,2015-10-30 14:41:47.584517,{42.001073;-87.661061}
397,30052,N,Main (Linden-bound),Main,Main (Purple Line),40270,f,f,f,f,f,t,t,f,f,f,2015-10-30 14:41:47.587588,2015-10-30 14:41:47.587588,{42.033456;-87.679538}
398,30091,S,Merchandise Mart (Loop-bound),Merchandise Mart,Merchandise Mart (Brown & Purple Lines),40460,t,f,f,f,t,f,t,f,f,f,2015-10-30 14:41:47.590749,2015-10-30 14:41:47.590749,{41.888969;-87.633924}
399,30182,S,Midway (Arrival),Midway,Midway (Orange Line),40930,t,f,f,f,f,f,f,f,f,t,2015-10-30 14:41:47.593868,2015-10-30 14:41:47.593868,{41.78661;-87.737875}
400,30153,N,Monroe (O'Hare-bound),Monroe,Monroe (Blue Line),40790,f,f,t,f,f,f,f,f,f,f,2015-10-30 14:41:47.596951,2015-10-30 14:41:47.596951,{41.880703;-87.629378}
401,30211,N,Monroe (Howard-bound),Monroe,Monroe (Red Line),41090,f,t,f,f,f,f,f,f,f,f,2015-10-30 14:41:47.599944,2015-10-30 14:41:47.599944,{41.880745;-87.627696}
402,30260,S,Montrose (Forest Pk-bound),Montrose,Montrose (Blue Line),41330,f,f,t,f,f,f,f,f,f,f,2015-10-30 14:41:47.603230,2015-10-30 14:41:47.603230,{41.961539;-87.743574}
403,30287,N,Montrose (Kimball-bound),Montrose,Montrose (Brown Line),41500,t,f,f,f,t,f,f,f,f,f,2015-10-30 14:41:47.606332,2015-10-30 14:41:47.606332,{41.961756;-87.675047}
404,30296,W,Morgan (Harlem-54th/Cermak-bound),Morgan,Morgan (Green & Pink Lines),41510,t,f,f,t,f,f,f,f,t,f,2015-10-30 14:41:47.609258,2015-10-30 14:41:47.609258,{41.885586;-87.652193}
405,30020,N,Morse (Howard-bound),Morse,Morse (Red Line),40100,f,t,f,f,f,f,f,f,f,f,2015-10-30 14:41:47.612494,2015-10-30 14:41:47.612494,{42.008362;-87.665909}
406,30125,N,North/Clybourn (Howard-bound),North/Clybourn,North/Clybourn (Red Line),40650,f,t,f,f,f,f,f,f,f,f,2015-10-30 14:41:47.615857,2015-10-30 14:41:47.615857,{41.910655;-87.649177}
407,30079,S,Noyes (Howard-Loop-bound),Noyes,Noyes (Purple Line),40400,f,f,f,f,f,t,t,f,f,f,2015-10-30 14:41:47.618895,2015-10-30 14:41:47.618895,{42.058282;-87.683337}
408,30263,E,Oak Park (63rd-bound),Oak Park,Oak Park (Green Line),41350,f,f,f,t,f,f,f,f,f,f,2015-10-30 14:41:47.622279,2015-10-30 14:41:47.622279,{41.886988;-87.793783}
409,30035,W,Oak Park (Forest Pk-bound),Oak Park,Oak Park (Blue Line),40180,f,f,t,f,f,f,f,f,f,f,2015-10-30 14:41:47.625409,2015-10-30 14:41:47.625409,{41.872108;-87.791602}
410,30298,S,Oakton-Skokie (Howard-bound),Oakton-Skokie,Oakton-Skokie (Yellow Line),41680,t,f,f,f,f,f,f,t,f,f,2015-10-30 14:41:47.628725,2015-10-30 14:41:47.628725,{42.02624348;-87.74722084}
411,30172,S,O'Hare (Forest Pk-bound),O'Hare,O'Hare (Blue Line),40890,t,f,t,f,f,f,f,f,f,f,2015-10-30 14:41:47.632337,2015-10-30 14:41:47.632337,{41.97766526;-87.90422307}
412,30254,S,Paulina (Loop-bound),Paulina,Paulina (Brown Line),41310,t,f,f,f,t,f,f,f,f,f,2015-10-30 14:41:47.635768,2015-10-30 14:41:47.635768,{41.943623;-87.670907}
413,30200,W,Polk (54th/Cermak-bound),Polk,Polk (Pink Line),41030,t,f,f,f,f,f,f,f,t,f,2015-10-30 14:41:47.640135,2015-10-30 14:41:47.640135,{41.871551;-87.66953}
414,30028,E,Pulaski (Loop-bound),Pulaski,Pulaski (Pink Line),40150,t,f,f,f,f,f,f,f,t,f,2015-10-30 14:41:47.643368,2015-10-30 14:41:47.643368,{41.853732;-87.724311}
415,30185,N,Pulaski (Loop-bound),Pulaski,Pulaski (Orange Line),40960,t,f,f,f,f,f,f,f,f,t,2015-10-30 14:41:47.646582,2015-10-30 14:41:47.646582,{41.799756;-87.724493}
416,30180,W,Pulaski (Forest Pk-bound),Pulaski,Pulaski (Blue Line),40920,f,f,t,f,f,f,f,f,f,f,2015-10-30 14:41:47.649842,2015-10-30 14:41:47.649842,{41.873797;-87.725663}
417,30005,E,Pulaski (63rd-bound),Pulaski,Pulaski (Green Line),40030,t,f,f,t,f,f,f,f,f,f,2015-10-30 14:41:47.653008,2015-10-30 14:41:47.653008,{41.885412;-87.725404}
418,30007,N,Quincy/Wells (Inner Loop),Quincy/Wells,Quincy/Wells (Brown,40040,f,f,f,f,f,f,t,f,t,t,2015-10-30 14:41:47.656193,2015-10-30 14:41:47.656193,{41.878723;-87.63374}
419,30093,W,Racine (Forest Pk-bound),Racine,Racine (Blue Line),40470,f,f,t,f,f,f,f,f,f,f,2015-10-30 14:41:47.659267,2015-10-30 14:41:47.659267,{41.87592;-87.659458}
420,30038,N,Randolph/Wabash (Outer Loop),Randolph/Wabash,Randolph/Wabash (Brown,40200,f,f,f,t,t,f,f,f,f,f,2015-10-30 14:41:47.662498,2015-10-30 14:41:47.662498,{41.884431;-87.626149}
421,30120,W,Ridgeland (Harlem-bound),Ridgeland,Ridgeland (Green Line),40610,f,f,f,t,f,f,f,f,f,f,2015-10-30 14:41:47.665690,2015-10-30 14:41:47.665690,{41.887159;-87.783661}
422,30196,S,Rockwell (Loop-bound),Rockwell,Rockwell (Brown Line),41010,t,f,f,f,t,f,f,f,f,f,2015-10-30 14:41:47.669009,2015-10-30 14:41:47.669009,{41.966115;-87.6941}
423,30081,S,Roosevelt (Midway-63rd-bound),Roosevelt,Roosevelt (Red,41400,t,f,f,t,f,f,f,f,f,t,2015-10-30 14:41:47.672232,2015-10-30 14:41:47.672232,{41.867405;-87.62659}
424,30159,N,Rosemont (O'Hare-bound),Rosemont,Rosemont (Blue Line),40820,t,f,t,f,f,f,f,f,f,f,2015-10-30 14:41:47.675450,2015-10-30 14:41:47.675450,{41.983507;-87.859388}
425,30155,N,Sedgwick (Kimball-Linden-bound),Sedgwick,Sedgwick (Brown & Purple Lines),40800,t,f,f,f,t,f,t,f,f,f,2015-10-30 14:41:47.678585,2015-10-30 14:41:47.678585,{41.910409;-87.639302}
426,30017,S,Sheridan (95th-bound),Sheridan,Sheridan (Red Line),40080,f,t,f,f,f,f,f,f,f,f,2015-10-30 14:41:47.681612,2015-10-30 14:41:47.681612,{41.953775;-87.654929}
427,30163,N,South Blvd (Linden-bound),South Boulevard,South Boulevard (Purple Line),40840,f,f,f,f,f,t,t,f,f,f,2015-10-30 14:41:47.684920,2015-10-30 14:41:47.684920,{42.027612;-87.678329}
428,30070,N,Southport (Kimball-bound),Southport,Southport (Brown Line),40360,t,f,f,f,t,f,f,f,f,f,2015-10-30 14:41:47.688593,2015-10-30 14:41:47.688593,{41.943744;-87.663619}
429,30036,N,Sox-35th (Howard-bound),Sox-35th,Sox-35th (Red Line),40190,t,t,f,f,f,f,f,f,f,f,2015-10-30 14:41:47.692016,2015-10-30 14:41:47.692016,{41.831191;-87.630636}
430,30051,W,State/Lake (Outer Loop),State/Lake,State/Lake (Brown,40260,f,f,f,t,t,f,f,f,f,f,2015-10-30 14:41:47.695251,2015-10-30 14:41:47.695251,{41.88574;-87.627835}
431,30170,S,Thorndale (95th-bound),Thorndale,Thorndale (Red Line),40880,f,t,f,f,f,f,f,f,f,f,2015-10-30 14:41:47.698660,2015-10-30 14:41:47.698660,{41.990259;-87.659076}
432,30069,W,UIC-Halsted (Forest Pk-bound),UIC-Halsted,UIC-Halsted (Blue Line),40350,t,f,t,f,f,f,f,f,f,f,2015-10-30 14:41:47.701897,2015-10-30 14:41:47.701897,{41.875474;-87.649707}
433,30073,S,Washington (Forest Pk-bound),Washington,Washington (Blue Line),40370,f,f,t,f,f,f,f,f,f,f,2015-10-30 14:41:47.705464,2015-10-30 14:41:47.705464,{41.883164;-87.62944}
434,30141,N,Washington/Wells (Inner Loop),Washington/Wells,Washington/Wells (Brown,40730,t,f,f,f,f,f,t,f,t,t,2015-10-30 14:41:47.709055,2015-10-30 14:41:47.709055,{41.882695;-87.63378}
435,30231,N,Wellington (Kimball-Linden-bound),Wellington,Wellington (Brown & Purple Lines),41210,t,f,f,f,t,f,t,f,f,f,2015-10-30 14:41:47.712310,2015-10-30 14:41:47.712310,{41.936033;-87.653266}
436,30129,N,Western (O'Hare Branch) (O'Hare-bound),Western,Western (Blue Line - O'Hare Branch),40670,t,f,t,f,f,f,f,f,f,f,2015-10-30 14:41:47.716149,2015-10-30 14:41:47.716149,{41.916157;-87.687364}
437,30284,S,Western (Loop-bound),Western,Western (Brown Line),41480,t,f,f,f,t,f,f,f,f,f,2015-10-30 14:41:47.721206,2015-10-30 14:41:47.721206,{41.966163;-87.688502}
438,30143,E,Western (Loop-bound),Western,Western (Pink Line),40740,t,f,f,f,f,f,f,f,t,f,2015-10-30 14:41:47.726905,2015-10-30 14:41:47.726905,{41.854225;-87.685129}
439,30061,S,Western (Midway-bound),Western,Western (Orange Line),40310,t,f,f,f,f,f,f,f,f,t,2015-10-30 14:41:47.731678,2015-10-30 14:41:47.731678,{41.804546;-87.684019}
440,30042,E,Western (Forest Pk Branch) (O'Hare-bound),Western,Western (Blue Line - Forest Park Branch),40220,f,f,t,f,f,f,f,f,f,f,2015-10-30 14:41:47.735687,2015-10-30 14:41:47.735687,{41.875478;-87.688436}
441,30106,S,Wilson (95th-bound),Wilson,Wilson (Red Line),40540,f,t,f,f,f,f,f,f,f,f,2015-10-30 14:41:47.740515,2015-10-30 14:41:47.740515,{41.964273;-87.657588}
